{
  "profiles": {
    "default": {
      "region": "Capital Region, NY",
      "branding": {
        "title": "Happenstance - Capital Region",
        "tagline": "Plan your weekend with great food and events around Niskayuna, Albany & Saratoga",
        "accent_color": "#3b82f6"
      },
      "pairing_rules": [
        "Pair live music with vibrant, shareable plates.",
        "Match family-friendly events with comforting classics.",
        "Keep late-night shows close to late-night kitchens."
      ],
      "data_sources": {
        "restaurants": "auto",
        "events": "auto"
      },
      "api_config": {
        "google_places": {
          "city": "Capital Region, NY",
          "count": 80
        },
        "ticketmaster": {
          "city": "Albany",
          "state_code": "NY",
          "count": 80
        },
        "eventbrite": {
          "city": "Capital Region, NY",
          "count": 80
        },
        "google_search": {
          "city": "Capital Region, NY",
          "count": 80,
          "queries": [
            "upcoming events Capital Region NY",
            "event calendar Albany NY",
            "event calendar Saratoga Springs NY",
            "event calendar Troy NY",
            "event calendar Schenectady NY",
            "upcoming concerts Capital Region NY",
            "upcoming art events Capital Region NY",
            "family events Capital Region NY"
          ]
        },
        "barpeople": {
          "count": 900
        },
        "ai": {
          "city": "Capital Region, NY",
          "restaurant_count": 35,
          "event_count": 60
        }
      },
      "live_search": {
        "mode": "local",
        "radius_km": 40,
        "radius_miles": 25,
        "limit": 10,
        "target_area": "Capital Region",
        "center": {
          "lat": 42.6526,
          "lng": -73.7562
        }
      },
      "target_areas": [
        {
          "id": "capital-region",
          "name": "Capital Region",
          "aliases": ["capital region", "near me"],
          "zips": [],
          "center": {"lat": 42.6526, "lng": -73.7562}
        },
        {
          "id": "albany",
          "name": "Albany",
          "aliases": ["downtown albany", "lark street"],
          "zips": ["12203", "12207", "12210"],
          "center": {"lat": 42.6526, "lng": -73.7562}
        },
        {
          "id": "saratoga",
          "name": "Saratoga Springs",
          "aliases": ["saratoga", "downtown saratoga"],
          "zips": ["12866"],
          "center": {"lat": 43.0831, "lng": -73.7846}
        },
        {
          "id": "troy",
          "name": "Troy",
          "aliases": ["downtown troy"],
          "zips": ["12180"],
          "center": {"lat": 42.7284, "lng": -73.6918}
        },
        {
          "id": "schenectady",
          "name": "Schenectady",
          "aliases": ["downtown schenectady", "proctors"],
          "zips": ["12305", "12308"],
          "center": {"lat": 42.8142, "lng": -73.9396}
        },
        {
          "id": "niskayuna",
          "name": "Niskayuna",
          "aliases": ["nisky"],
          "zips": ["12309"],
          "center": {"lat": 42.7798, "lng": -73.8457}
        },
        {
          "id": "clifton-park",
          "name": "Clifton Park",
          "aliases": [],
          "zips": ["12065"],
          "center": {"lat": 42.8656, "lng": -73.7709}
        },
        {
          "id": "colonie",
          "name": "Colonie",
          "aliases": ["wolf road"],
          "zips": ["12205"],
          "center": {"lat": 42.7179, "lng": -73.8335}
        },
        {
          "id": "lake-george",
          "name": "Lake George",
          "aliases": ["adirondack"],
          "zips": ["12845"],
          "center": {"lat": 43.4262, "lng": -73.7123}
        },
        {
          "id": "glens-falls",
          "name": "Glens Falls",
          "aliases": ["downtown glens falls"],
          "zips": ["12801"],
          "center": {"lat": 43.3095, "lng": -73.644}
        },
        {
          "id": "queensbury",
          "name": "Queensbury",
          "aliases": [],
          "zips": ["12804"],
          "center": {"lat": 43.3536, "lng": -73.6772}
        },
        {
          "id": "ballston-spa",
          "name": "Ballston Spa",
          "aliases": [],
          "zips": ["12020"],
          "center": {"lat": 43.0009, "lng": -73.8496}
        },
        {
          "id": "malta",
          "name": "Malta",
          "aliases": [],
          "zips": ["12020"],
          "center": {"lat": 42.9715, "lng": -73.7929}
        },
        {
          "id": "latham",
          "name": "Latham",
          "aliases": [],
          "zips": ["12110"],
          "center": {"lat": 42.747, "lng": -73.759}
        },
        {
          "id": "cohoes",
          "name": "Cohoes",
          "aliases": [],
          "zips": ["12047"],
          "center": {"lat": 42.7742, "lng": -73.7001}
        },
        {
          "id": "watervliet",
          "name": "Watervliet",
          "aliases": [],
          "zips": ["12189"],
          "center": {"lat": 42.7301, "lng": -73.7012}
        },
        {
          "id": "delmar",
          "name": "Delmar",
          "aliases": [],
          "zips": ["12054"],
          "center": {"lat": 42.622, "lng": -73.8326}
        },
        {
          "id": "guilderland",
          "name": "Guilderland",
          "aliases": [],
          "zips": ["12084"],
          "center": {"lat": 42.7045, "lng": -73.9115}
        },
        {
          "id": "fort-edward",
          "name": "Fort Edward",
          "aliases": [],
          "zips": ["12828"],
          "center": {"lat": 43.267, "lng": -73.5846}
        }
      ],
      "target_cuisines": ["Italian", "Sushi", "BBQ", "Vegan", "Mexican", "Thai", "Chinese", "Indian"],
      "target_categories": ["live music", "dj", "karaoke", "open mic", "trivia", "bar event", "art", "family", "sports"],
      "event_window_days": 90,
      "base_url": "https://evcatalyst.github.io/happenstance"
    }
  }
}
